<?xml version='1.0' encoding='utf-8'?>
<kml xmlns="http://www.opengis.net/kml/2.2"><Document><Placemark><name>Inicio de la ruta</name><description>Punto de salida</description><Point><coordinates>-5.830541,43.158453,318.945</coordinates><altitudeMode>absolute</altitudeMode></Point></Placemark><Placemark><name>Albergue de Peregrinos de la Peña Mieres del Camín</name><description>Antiguo albergue de peregrinos situado en la localidad de Mieres del Camín, con una gran historia.</description><Point><coordinates>-5.78023162,43.26324454,203.08184918</coordinates><altitudeMode>absolute</altitudeMode></Point></Placemark><Placemark><name>Antiguo hospital Ntra Sra de La Alberguería</name><description>Histórico hospital que servía como lugar de descanso para los peregrinos durante su travesía por el Camino de San Salvador.</description><Point><coordinates>-5.7750,43.2515,210</coordinates><altitudeMode>absolute</altitudeMode></Point></Placemark><Placemark><name>Estación Del Vasco</name><description>Antigua estación de tren reconvertida en un importante hito turístico del Camino de San Salvador.</description><Point><coordinates>-5.8030,43.2650,230</coordinates><altitudeMode>absolute</altitudeMode></Point></Placemark><Placemark><name>Iglesia de Santa Eulalia de Ujo</name><description>Una iglesia histórica que forma parte del recorrido del Camino de San Salvador, conocida por su arquitectura medieval.</description><Point><coordinates>-5.8201,43.2823,245</coordinates><altitudeMode>absolute</altitudeMode></Point></Placemark><Placemark><name>Iglesia de San Xuan</name><description>Una iglesia de interés histórico y cultural situada cerca del final de la etapa.</description><Point><coordinates>-5.8321,43.2987,250</coordinates><altitudeMode>absolute</altitudeMode></Point></Placemark><Placemark><name>Recorrido de la ruta</name><LineString><extrude>1</extrude><tessellate>1</tessellate><coordinates>-5.830541,43.158453,318.945 -5.78023162,43.26324454,203.08184918 -5.7750,43.2515,210 -5.8030,43.2650,230 -5.8201,43.2823,245 -5.8321,43.2987,250</coordinates><altitudeMode>absolute</altitudeMode></LineString><Style><LineStyle><color>ff0000ff</color><width>3</width></LineStyle></Style></Placemark></Document></kml>