<?xml version='1.0' encoding='utf-8'?>
<kml xmlns="http://www.opengis.net/kml/2.2"><Document><Placemark><name>Inicio de la ruta</name><description>Punto de salida</description><Point><coordinates>-5.83009734,43.15767135,322.45</coordinates><altitudeMode>absolute</altitudeMode></Point></Placemark><Placemark><name>Antiguo molino</name><description>Antiguo molino abandonado</description><Point><coordinates>-5.85145994,43.15067751 ,413.40</coordinates><altitudeMode>absolute</altitudeMode></Point></Placemark><Placemark><name>Ermita de La Flor</name><description>La capilla era cuidada por un ermitaño cuya responsabilidad incluía una tarea muy importante: tañer la campana en días de niebla y tormenta para guiar a los viajeros en su ruta hacia Quirós.</description><Point><coordinates>-5.85376932,43.15121823,408.27</coordinates><altitudeMode>absolute</altitudeMode></Point></Placemark><Placemark><name>Antiguo transformador eléctrico</name><description>Antiguo transformador eléctrico en desuso de una explotación minera.</description><Point><coordinates>-5.85747858,43.14674104,551.70</coordinates><altitudeMode>absolute</altitudeMode></Point></Placemark><Placemark><name>Cabaña</name><description>Pequeña cabaña al borde del bosque.</description><Point><coordinates>-5.86516083,43.14352008,787.06</coordinates><altitudeMode>absolute</altitudeMode></Point></Placemark><Placemark><name>Vista del Gamoniteiro</name><description>Punto panorámico con vistas al Gamoniteiro.</description><Point><coordinates>-5.86610204,43.14388106,816.48</coordinates><altitudeMode>absolute</altitudeMode></Point></Placemark><Placemark><name>Recorrido de la ruta</name><LineString><extrude>1</extrude><tessellate>1</tessellate><coordinates>-5.83009734,43.15767135,322.45 -5.85145994,43.15067751 ,413.40 -5.85376932,43.15121823,408.27 -5.85747858,43.14674104,551.70 -5.86516083,43.14352008,787.06 -5.86610204,43.14388106,816.48</coordinates><altitudeMode>absolute</altitudeMode></LineString><Style><LineStyle><color>ff0000ff</color><width>3</width></LineStyle></Style></Placemark></Document></kml>